id,alias,name,is_closed,review_count,rating,price,categories,latitude,longitude,address,city,zipcode,state,country
PCBRBihiuDYFt64cOP9eMQ,the-bike-hub-jersey-city,The Bike Hub,FALSE,63,5,$$,bikes|bike_repair_maintenance|bikerentals,40.72128,-74.07044,191 Monticello Ave,Jersey City,7304,NJ,US
xbjMJpF62KrTju9Or747pA,grove-street-bicycles-jersey-city-3,Grove Street Bicycles,FALSE,109,4,$$,bikes|bike_repair_maintenance|bikerentals,40.720817,-74.046086,172 Christopher Columbus Dr,Jersey City,7302,NJ,US
BqUUtLJiFLPuqU5MlN4gOA,the-jersey-city-bicycle-co-jersey-city,The Jersey City Bicycle Co,FALSE,8,5,MISSING,bikes|bike_repair_maintenance,40.72444,-74.0665073,687 Montgomery St,Jersey City,7306,NJ,US
2CEJIlumIGEZ_mImDVPPzQ,jersey-cycles-jersey-city,Jersey Cycles,FALSE,49,4.5,$$,bikes|bike_repair_maintenance|bikerentals,40.751983,-74.044982,510 Central Ave,Jersey City,7307,NJ,US
q0hfrHSJfWnNEmLYht9rRg,modells-jersey-city,Modells,FALSE,21,2,$$,sportgoods,40.73073059,-74.03534557,611 Washington Blvd,Jersey City,7310,NJ,US
